[
    {
      "name": "Delhi",
      "lat": 28.704,
      "lon": 77.103,
      "link": "delhi-gallery.html"
    },
    {
      "name": "Mumbai",
      "lat": 19.0760,
      "lon": 72.9777,
      "link": "mumbai-gallery.html"
    },
    {
      "name": "Kolkata",
      "lat": 22.5726,
      "lon": 88.3639,
      "link": "kolkata-gallery.html"
    },
    {
      "name": "Bengaluru",
      "lat": 12.9716,
      "lon": 77.5946,
      "link": "bengaluru-gallery.html"
    },
    {
      "name": "Chennai",
      "lat": 13.0827,
      "lon": 79.6107,
      "link": "chennai-gallery.html"
    }
  ]
  